[
  {
    "file": "48-hours-of-adrenaline.json",
    "title": "Coasteering Classic",
    "type": "activity",
    "day": 2,
    "order": 2,
    "lat": 51.881,
    "lng": -5.266,
    "region": "multi",
    "distFromCenter": 121,
    "reverseLocation": "St. David's and the Cathedral Close, Pembrokeshire, Cymru / Wales, United Kingdom",
    "isInSea": false
  },
  {
    "file": "48-hours-of-adrenaline.json",
    "title": "TYF Cliff-top Campsite",
    "type": "accommodation",
    "day": 2,
    "order": 3,
    "lat": 51.881,
    "lng": -5.266,
    "region": "multi",
    "distFromCenter": 121,
    "reverseLocation": "St. David's and the Cathedral Close, Pembrokeshire, Cymru / Wales, United Kingdom",
    "isInSea": false
  },
  {
    "file": "caving-and-climbing.json",
    "title": "The River Cafe",
    "type": "food",
    "day": 1,
    "order": 2,
    "lat": 52.092,
    "lng": -3.161,
    "region": "brecon-beacons",
    "distFromCenter": 36,
    "reverseLocation": "Great Gwernfythen, Clyro, Powys, Cymru / Wales, HR3 5SN, United Kingdom",
    "isInSea": false
  },
  {
    "file": "family-adventure-week.json",
    "title": "Mountain Biking - Llandegla Forest",
    "type": "activity",
    "day": 4,
    "order": 1,
    "lat": 53.056,
    "lng": -3.191,
    "region": "snowdonia",
    "distFromCenter": 48,
    "reverseLocation": "Llandegla, Denbighshire, Cymru / Wales, United Kingdom",
    "isInSea": false
  },
  {
    "file": "family-adventure-week.json",
    "title": "Oneplanet Adventure Cafe",
    "type": "food",
    "day": 4,
    "order": 2,
    "lat": 53.06,
    "lng": -3.19,
    "region": "snowdonia",
    "distFromCenter": 48,
    "reverseLocation": "Llandegla, Denbighshire, Cymru / Wales, United Kingdom",
    "isInSea": false
  },
  {
    "file": "family-adventure-week.json",
    "title": "Loggerheads Country Park",
    "type": "activity",
    "day": 4,
    "order": 3,
    "lat": 53.15,
    "lng": -3.23,
    "region": "snowdonia",
    "distFromCenter": 48,
    "reverseLocation": "Llanferres, Denbighshire, Cymru / Wales, United Kingdom",
    "isInSea": false
  },
  {
    "file": "mid-wales-mtb-trail.json",
    "title": "Llandegla Mountain Biking",
    "type": "activity",
    "day": 2,
    "order": 3,
    "lat": 53.056,
    "lng": -3.191,
    "region": "mid-wales",
    "distFromCenter": 68,
    "reverseLocation": "Llandegla, Denbighshire, Cymru / Wales, United Kingdom",
    "isInSea": false
  },
  {
    "file": "mid-wales-mtb-trail.json",
    "title": "The Lodge (Llandegla)",
    "type": "accommodation",
    "day": 2,
    "order": 4,
    "lat": 53.056,
    "lng": -3.191,
    "region": "mid-wales",
    "distFromCenter": 68,
    "reverseLocation": "Llandegla, Denbighshire, Cymru / Wales, United Kingdom",
    "isInSea": false
  },
  {
    "file": "mid-wales-mtb-trail.json",
    "title": "Morning mountain biking in Llandegla Forest",
    "type": "activity",
    "day": 3,
    "order": 1,
    "lat": 53.056,
    "lng": -3.191,
    "region": "mid-wales",
    "distFromCenter": 68,
    "reverseLocation": "Llandegla, Denbighshire, Cymru / Wales, United Kingdom",
    "isInSea": false
  },
  {
    "file": "mid-wales-mtb-trail.json",
    "title": "Oneplanet Adventure Cafe",
    "type": "food",
    "day": 3,
    "order": 2,
    "lat": 53.056,
    "lng": -3.191,
    "region": "mid-wales",
    "distFromCenter": 68,
    "reverseLocation": "Llandegla, Denbighshire, Cymru / Wales, United Kingdom",
    "isInSea": false
  },
  {
    "file": "mid-wales-river-adventure.json",
    "title": "Kayaking on the River Wye",
    "type": "activity",
    "day": 1,
    "order": 1,
    "lat": 52.15,
    "lng": -3,
    "region": "mid-wales",
    "distFromCenter": 56,
    "reverseLocation": "Almeley, Herefordshire, England, United Kingdom",
    "isInSea": false
  },
  {
    "file": "mountain-biking-epic.json",
    "title": "BikePark Wales (Drive from Bunkhouse)",
    "type": "activity",
    "day": 2,
    "order": 1,
    "lat": 51.6916,
    "lng": -3.3252,
    "region": "snowdonia",
    "distFromCenter": 151,
    "reverseLocation": "Merthyr Vale, Merthyr Tydfil, Cymru / Wales, United Kingdom",
    "isInSea": false
  },
  {
    "file": "mountain-biking-epic.json",
    "title": "Bunkhouse, Brecon Beacons",
    "type": "accommodation",
    "day": 2,
    "order": 2,
    "lat": 51.94,
    "lng": -3.43,
    "region": "snowdonia",
    "distFromCenter": 122,
    "reverseLocation": "Garn-Galed, Glyn Tarell, Llanspyddid, Powys, Cymru / Wales, LD3 8PE, United Kingdom",
    "isInSea": false
  },
  {
    "file": "mountain-biking-epic.json",
    "title": "Mountain Biking - Llandegla Forest",
    "type": "activity",
    "day": 3,
    "order": 1,
    "lat": 53.056,
    "lng": -3.191,
    "region": "snowdonia",
    "distFromCenter": 48,
    "reverseLocation": "Llandegla, Denbighshire, Cymru / Wales, United Kingdom",
    "isInSea": false
  },
  {
    "file": "multi-sport-challenge.json",
    "title": "Rock Climbing at Three Cliffs Bay",
    "type": "activity",
    "day": 2,
    "order": 1,
    "lat": 51.5751,
    "lng": -4.0859,
    "region": "south-wales",
    "distFromCenter": 49,
    "reverseLocation": "Widegate, Pennard, Swansea, Cymru / Wales, SA3 2AB, United Kingdom",
    "isInSea": false
  },
  {
    "file": "multi-sport-challenge.json",
    "title": "The Gower Inn",
    "type": "food",
    "day": 2,
    "order": 2,
    "lat": 51.5988,
    "lng": -4.0669,
    "region": "south-wales",
    "distFromCenter": 47,
    "reverseLocation": "Pennard, Canisland, Swansea, Cymru / Wales, United Kingdom",
    "isInSea": false
  },
  {
    "file": "multi-sport-challenge.json",
    "title": "Surfing Lesson at Llangennith Beach",
    "type": "activity",
    "day": 2,
    "order": 3,
    "lat": 51.5715,
    "lng": -4.3059,
    "region": "south-wales",
    "distFromCenter": 64,
    "reverseLocation": "Rhossili, Swansea, Cymru / Wales, SA3 1PL, United Kingdom",
    "isInSea": false
  },
  {
    "file": "multi-sport-challenge.json",
    "title": "The King Arthur Hotel, Reynoldston",
    "type": "accommodation",
    "day": 2,
    "order": 4,
    "lat": 51.5873,
    "lng": -4.1571,
    "region": "south-wales",
    "distFromCenter": 54,
    "reverseLocation": "Llanrhidian Lower, Swansea, Cymru / Wales, United Kingdom",
    "isInSea": false
  },
  {
    "file": "wales-first-timer-sampler.json",
    "title": "St Davids YHA",
    "type": "accommodation",
    "day": 2,
    "order": 4,
    "lat": 51.8811,
    "lng": -5.2657,
    "region": "multi",
    "distFromCenter": 121,
    "reverseLocation": "St. David's and the Cathedral Close, Pembrokeshire, Cymru / Wales, United Kingdom",
    "isInSea": false
  },
  {
    "file": "wales-first-timer-sampler.json",
    "title": "Coasteering Classic",
    "type": "activity",
    "day": 3,
    "order": 1,
    "lat": 51.881,
    "lng": -5.266,
    "region": "multi",
    "distFromCenter": 121,
    "reverseLocation": "St. David's and the Cathedral Close, Pembrokeshire, Cymru / Wales, United Kingdom",
    "isInSea": false
  },
  {
    "file": "wales-first-timer-sampler.json",
    "title": "The Whitesands Beach Cafe",
    "type": "food",
    "day": 3,
    "order": 2,
    "lat": 51.892,
    "lng": -5.303,
    "region": "multi",
    "distFromCenter": 123,
    "reverseLocation": "Rhosson Ganol, St. David's and the Cathedral Close, St Davids, Pembrokeshire, Cymru / Wales, SA62 6PY, United Kingdom",
    "isInSea": false
  },
  {
    "file": "wales-first-timer-sampler.json",
    "title": "Surfing Lesson",
    "type": "activity",
    "day": 3,
    "order": 3,
    "lat": 51.892,
    "lng": -5.303,
    "region": "multi",
    "distFromCenter": 123,
    "reverseLocation": "Rhosson Ganol, St. David's and the Cathedral Close, St Davids, Pembrokeshire, Cymru / Wales, SA62 6PY, United Kingdom",
    "isInSea": false
  },
  {
    "file": "wales-first-timer-sampler.json",
    "title": "Drive to Betws-y-Coed",
    "type": "travel",
    "day": 3,
    "order": 4,
    "lat": 51.892,
    "lng": -5.303,
    "region": "multi",
    "distFromCenter": 123,
    "reverseLocation": "Rhosson Ganol, St. David's and the Cathedral Close, St Davids, Pembrokeshire, Cymru / Wales, SA62 6PY, United Kingdom",
    "isInSea": false
  },
  {
    "file": "wales-grand-tour.json",
    "title": "Coasteering Classic",
    "type": "activity",
    "day": 3,
    "order": 1,
    "lat": 51.881,
    "lng": -5.266,
    "region": "multi",
    "distFromCenter": 121,
    "reverseLocation": "St. David's and the Cathedral Close, Pembrokeshire, Cymru / Wales, United Kingdom",
    "isInSea": false
  },
  {
    "file": "wales-grand-tour.json",
    "title": "The Bishops",
    "type": "food",
    "day": 3,
    "order": 2,
    "lat": 51.886,
    "lng": -5.282,
    "region": "multi",
    "distFromCenter": 122,
    "reverseLocation": "St. David's and the Cathedral Close, Pembrokeshire, Cymru / Wales, United Kingdom",
    "isInSea": false
  },
  {
    "file": "wales-grand-tour.json",
    "title": "Surfing Lesson",
    "type": "activity",
    "day": 3,
    "order": 3,
    "lat": 51.892,
    "lng": -5.303,
    "region": "multi",
    "distFromCenter": 123,
    "reverseLocation": "Rhosson Ganol, St. David's and the Cathedral Close, St Davids, Pembrokeshire, Cymru / Wales, SA62 6PY, United Kingdom",
    "isInSea": false
  },
  {
    "file": "wales-under-50-budget.json",
    "title": "TYF Cliff-top Campsite",
    "type": "accommodation",
    "day": 2,
    "order": 3,
    "lat": 51.8824,
    "lng": -5.2948,
    "region": "multi",
    "distFromCenter": 123,
    "reverseLocation": "St. David's and the Cathedral Close, Pembrokeshire, Cymru / Wales, United Kingdom",
    "isInSea": false
  },
  {
    "file": "wales-under-50-budget.json",
    "title": "Surfing at Whitesands Beach (DIY)",
    "type": "activity",
    "day": 3,
    "order": 3,
    "lat": 51.892,
    "lng": -5.303,
    "region": "multi",
    "distFromCenter": 123,
    "reverseLocation": "Rhosson Ganol, St. David's and the Cathedral Close, St Davids, Pembrokeshire, Cymru / Wales, SA62 6PY, United Kingdom",
    "isInSea": false
  },
  {
    "file": "wales-without-a-car.json",
    "title": "Coasteering Classic",
    "type": "activity",
    "day": 3,
    "order": 3,
    "lat": 51.881,
    "lng": -5.266,
    "region": "multi",
    "distFromCenter": 121,
    "reverseLocation": "St. David's and the Cathedral Close, Pembrokeshire, Cymru / Wales, United Kingdom",
    "isInSea": false
  },
  {
    "file": "wales-without-a-car.json",
    "title": "St Davids YHA",
    "type": "accommodation",
    "day": 3,
    "order": 4,
    "lat": 51.881,
    "lng": -5.266,
    "region": "multi",
    "distFromCenter": 121,
    "reverseLocation": "St. David's and the Cathedral Close, Pembrokeshire, Cymru / Wales, United Kingdom",
    "isInSea": false
  },
  {
    "file": "wales-without-a-car.json",
    "title": "Surfing Lesson",
    "type": "activity",
    "day": 4,
    "order": 1,
    "lat": 51.892,
    "lng": -5.303,
    "region": "multi",
    "distFromCenter": 123,
    "reverseLocation": "Rhosson Ganol, St. David's and the Cathedral Close, St Davids, Pembrokeshire, Cymru / Wales, SA62 6PY, United Kingdom",
    "isInSea": false
  },
  {
    "file": "wales-without-a-car.json",
    "title": "The Bishops",
    "type": "food",
    "day": 4,
    "order": 2,
    "lat": 51.881,
    "lng": -5.266,
    "region": "multi",
    "distFromCenter": 121,
    "reverseLocation": "St. David's and the Cathedral Close, Pembrokeshire, Cymru / Wales, United Kingdom",
    "isInSea": false
  },
  {
    "file": "wales-without-a-car.json",
    "title": "Bus T4 Haverfordwest to Builth Wells",
    "type": "travel",
    "day": 4,
    "order": 3,
    "lat": 51.881,
    "lng": -5.266,
    "region": "multi",
    "distFromCenter": 121,
    "reverseLocation": "St. David's and the Cathedral Close, Pembrokeshire, Cymru / Wales, United Kingdom",
    "isInSea": false
  }
]